,City,Cloudiness,Country,Date,Humidity,Lat,Lng,Max Temp,Wind Speed
0,Severo-Yeniseyskiy,12.0,RU,1512937006,61.0,60.37,93.04,0.82,3.94
1,Huarmey,0.0,PE,1512937007,64.0,-10.07,-78.15,72.23,3.94
2,Aquiraz,40.0,BR,1512936000,70.0,-3.9,-38.39,84.2,9.17
3,Saint-Ambroise,90.0,CA,1512936000,85.0,48.55,-71.33,14.0,13.87
4,Makamba,80.0,BI,1512937008,99.0,-4.13,29.8,61.61,2.48
5,Roald,75.0,NO,1512935400,69.0,62.58,6.13,35.6,9.17
6,Busselton,20.0,AU,1512937009,100.0,-33.65,115.33,67.28,16.46
7,Progreso,75.0,MX,1512931680,38.0,21.28,-89.67,77.0,5.82
8,Komsomolskiy,88.0,RU,1512937010,98.0,43.98,46.7,40.91,4.83
9,Okha,88.0,RU,1512937010,91.0,53.57,142.95,25.3,26.87
10,Bambous Virieux,40.0,MU,1512932400,74.0,-20.34,57.76,78.8,11.41
11,Severnyy,75.0,RU,1512934200,87.0,50.68,36.55,44.6,17.9
12,Atuona,92.0,PF,1512937012,100.0,-9.8,-139.03,77.41,10.76
13,Namikupa,92.0,TZ,1512937012,99.0,-10.83,39.6,73.18,4.61
14,Pevek,68.0,RU,1512937013,100.0,69.7,170.31,7.48,5.17
15,Tual,24.0,ID,1512937013,100.0,-5.67,132.75,84.25,4.94
16,Kapaa,90.0,US,1512932160,73.0,22.08,-159.32,73.4,11.41
17,Ribeira Grande,75.0,PT,1512936000,93.0,38.52,-28.7,64.4,21.92
18,Hermanus,24.0,ZA,1512937015,64.0,-34.42,19.23,59.63,9.42
19,Thompson,90.0,CA,1512936000,70.0,55.74,-97.86,1.4,3.36
20,Flinders,0.0,AU,1512932400,100.0,-34.58,150.86,59.0,5.82
21,Bredasdorp,68.0,ZA,1512932400,55.0,-34.53,20.04,66.2,16.11
22,Bluff,48.0,NZ,1512936975,100.0,-46.6,168.33,58.46,25.52
23,Dingle,8.0,IE,1512937017,100.0,52.14,-10.27,39.97,23.73
24,Ushuaia,40.0,AR,1512932400,48.0,-54.8,-68.3,60.8,11.41
25,Namatanai,88.0,PG,1512937018,100.0,-3.67,152.43,80.38,7.63
26,Locri,20.0,IT,1512935400,61.0,38.24,16.26,51.8,5.82
27,Vardo,20.0,NO,1512935400,74.0,70.37,31.11,33.8,19.46
28,Dakar,8.0,SN,1512932400,53.0,14.69,-17.44,77.0,11.41
29,Ponta do Sol,20.0,CV,1512937021,99.0,17.2,-25.09,76.33,17.25
30,Puerto Colombia,40.0,CO,1512932400,74.0,10.99,-74.95,87.8,9.17
31,Rikitea,88.0,PF,1512937021,100.0,-23.12,-134.97,75.97,13.11
32,Nizwa,0.0,OM,1512937022,55.0,22.93,57.53,47.44,3.6
33,Vostok,88.0,RU,1512937022,72.0,46.49,135.88,4.87,3.71
34,Tiksi,0.0,RU,1512937023,48.0,71.69,128.87,-29.25,2.71
35,Srednekolymsk,64.0,RU,1512937023,72.0,67.45,153.68,-10.12,3.27
36,Acarau,44.0,BR,1512937024,69.0,-2.89,-40.12,82.36,11.43
37,Pulaski,1.0,US,1512935700,55.0,37.05,-80.78,39.2,14.99
38,Mehamn,75.0,NO,1512935400,100.0,71.04,27.85,32.0,10.29
39,Victoria,40.0,SC,1512932400,78.0,-4.62,55.45,80.6,4.7
40,Chokurdakh,48.0,RU,1512937026,67.0,70.63,147.92,-14.4,5.61
41,Kodiak,90.0,US,1512935580,87.0,57.79,-152.41,42.8,16.11
42,Araouane,56.0,ML,1512937027,32.0,18.9,-3.53,59.9,7.74
43,Ishigaki,8.0,JP,1512937027,100.0,24.34,124.16,69.85,25.3
44,Punta Arenas,40.0,CL,1512932400,55.0,-53.15,-70.92,62.6,27.51
45,Saint-Augustin,92.0,CA,1512937028,100.0,51.23,-58.65,35.15,18.03
46,Palmer,75.0,US,1512935580,51.0,42.16,-72.33,37.4,9.17
47,Saint-Philippe,0.0,RE,1512934200,73.0,-21.36,55.77,75.2,6.93
48,Umm Lajj,0.0,SA,1512937030,100.0,25.02,37.27,65.75,7.63
49,Porto Novo,75.0,CV,1512936000,57.0,17.02,-25.06,75.2,14.99
50,Isangel,64.0,VU,1512937031,100.0,-19.55,169.27,78.98,10.87
51,Vaini,20.0,TO,1512936000,69.0,-21.2,-175.2,78.8,4.7
52,Yellowknife,75.0,CA,1512936000,84.0,62.46,-114.35,1.4,4.7
53,Heishan,0.0,CN,1512937034,32.0,41.69,122.11,0.91,8.97
54,Norman Wells,90.0,CA,1512936000,92.0,65.28,-126.83,21.2,2.24
55,Severo-Kurilsk,88.0,RU,1512937035,100.0,50.68,156.12,32.9,25.64
56,Maniitsoq,76.0,GL,1512937035,100.0,65.42,-52.9,26.96,3.04
57,East London,92.0,ZA,1512937036,100.0,-33.02,27.91,64.9,4.72
58,Natal,40.0,BR,1512932400,70.0,-5.79,-35.21,84.2,12.75
59,Dosso,0.0,NE,1512937037,42.0,13.05,3.19,62.11,7.74
60,Santa Vitoria do Palmar,0.0,BR,1512936790,60.0,-33.52,-53.37,71.47,17.47
61,Tuatapere,76.0,NZ,1512937038,100.0,-46.13,167.68,56.44,16.02
62,Vallenar,0.0,CL,1512937038,68.0,-28.57,-70.76,72.64,2.93
63,Voh,80.0,NC,1512937039,100.0,-20.97,164.7,73.9,3.83
64,Buraydah,20.0,SA,1512932400,45.0,26.33,43.98,50.0,3.36
65,Antalaha,20.0,MG,1512937040,89.0,-14.9,50.28,76.51,3.38
66,Lebu,76.0,CL,1512937040,91.0,-37.62,-73.65,56.66,23.62
67,Rovaniemi,90.0,FI,1512935400,100.0,66.5,25.72,28.4,6.93
68,Belmonte,40.0,BR,1512936000,83.0,-15.86,-38.88,80.6,11.41
69,Sechura,0.0,PE,1512937042,70.0,-5.56,-80.82,76.1,16.46
70,Lodja,80.0,CD,1512937043,95.0,-3.48,23.43,71.74,2.71
71,Svetlaya,92.0,RU,1512937043,100.0,46.54,138.33,25.48,29.21
72,Sao Gabriel da Cachoeira,64.0,BR,1512937044,53.0,-0.13,-67.09,91.27,3.83
73,Tayu,92.0,ID,1512937044,100.0,-6.54,111.05,75.97,2.37
74,Udachnyy,32.0,RU,1512937045,39.0,66.42,112.4,-25.92,2.48
75,Dunedin,36.0,NZ,1512936948,62.0,-45.87,170.5,65.35,9.08
76,Hilo,90.0,US,1512932160,68.0,19.73,-155.09,71.6,4.7
77,Quatre Cocos,40.0,MU,1512932400,74.0,-20.21,57.76,78.8,11.41
78,Provideniya,40.0,RU,1512934200,47.0,64.38,-173.3,15.8,24.61
79,Skagen,88.0,DK,1512937048,100.0,57.72,10.58,38.48,17.25
80,Naze,36.0,JP,1512937048,100.0,28.37,129.48,64.81,19.48
81,Takaka,0.0,NZ,1512937048,88.0,-40.85,172.8,64.4,8.19
82,New Norfolk,75.0,AU,1512936000,67.0,-42.78,147.06,59.0,12.75
83,Haapiti,75.0,PF,1512936000,66.0,-17.57,-149.87,86.0,17.22
84,Jamestown,20.0,SH,1512936883,99.0,-15.94,-5.72,70.12,13.56
85,Saint George,75.0,BM,1512932100,83.0,32.38,-64.68,75.2,20.8
86,Iqaluit,90.0,CA,1512936000,84.0,63.75,-68.51,6.8,13.87
87,Cherskiy,64.0,RU,1512937052,89.0,68.75,161.3,-6.25,4.61
88,Barrow,90.0,US,1512935580,84.0,71.29,-156.79,1.4,24.16
89,Mandawar,0.0,IN,1512937053,82.0,29.5,78.13,48.11,3.04
90,Walvis Bay,0.0,NA,1512932400,82.0,-22.96,14.51,60.8,4.7
91,Port Alfred,88.0,ZA,1512937054,89.0,-33.59,26.89,63.64,6.73
92,Geraldton,0.0,AU,1512934200,83.0,-28.77,114.6,69.8,6.93
93,Laguna,32.0,BR,1512937055,80.0,-28.48,-48.78,78.35,13.22
94,Tiquisio,56.0,CO,1512937056,84.0,8.56,-74.27,79.61,2.04
95,Puerto Ayora,20.0,EC,1512932400,61.0,-0.74,-90.35,78.8,9.17
96,Santa Rosa,90.0,BO,1512932400,100.0,-14.17,-66.88,69.8,3.36
97,Tautira,75.0,PF,1512936000,66.0,-17.73,-149.15,86.0,17.22
98,Husavik,75.0,IS,1512932400,92.0,66.04,-17.34,21.2,7.96
99,Ponta Delgada,75.0,PT,1512936000,88.0,37.73,-25.67,66.2,24.16
100,Bathsheba,40.0,BB,1512932400,66.0,13.22,-59.52,84.2,12.75
101,Kibungo,68.0,RW,1512937060,98.0,-2.16,30.54,60.35,2.71
102,Sao Miguel do Araguaia,92.0,BR,1512937060,100.0,-13.28,-50.16,71.78,5.95
103,Namie,12.0,JP,1512937061,100.0,37.48,141.0,46.63,9.75
104,Avarua,90.0,CK,1512936000,88.0,-21.21,-159.78,78.8,4.7
105,Okahandja,20.0,NA,1512932400,38.0,-21.98,16.92,73.4,2.24
106,Tuktoyaktuk,40.0,CA,1512936000,76.0,69.45,-133.04,-5.81,14.99
107,Klaksvik,80.0,FO,1512935400,86.0,62.23,-6.59,37.4,21.92
108,Narsaq,88.0,GL,1512935400,86.0,60.92,-46.05,33.8,2.24
109,Takoradi,36.0,GH,1512937064,100.0,4.88,-1.76,80.38,6.51
110,Nuevo Casas Grandes,36.0,MX,1512937064,55.0,30.42,-107.92,50.77,10.76
111,Tarimbaro,40.0,MX,1512932280,47.0,19.78,-101.13,59.0,9.17
112,Vao,92.0,NC,1512937065,100.0,-22.67,167.48,75.34,8.75
113,Saskylakh,20.0,RU,1512937066,38.0,71.92,114.08,-24.57,3.15
114,Lakhdenpokhya,88.0,RU,1512937067,96.0,61.52,30.2,30.2,9.19
115,Dongsheng,12.0,CN,1512937067,57.0,39.82,109.98,5.77,8.3
116,Nome,75.0,US,1512935580,66.0,64.5,-165.41,15.8,3.36
117,Kavaratti,8.0,IN,1512937068,100.0,10.57,72.64,81.05,3.94
118,Krasnokamensk,8.0,RU,1512937068,58.0,50.1,118.04,-21.37,6.29
119,Dikson,68.0,RU,1512937069,100.0,73.51,80.55,9.64,13.22
120,Mizan Teferi,20.0,ET,1512937069,77.0,6.98,35.58,62.02,1.81
121,Stornoway,24.0,GB,1512935400,93.0,58.21,-6.39,37.4,10.29
122,Nanortalik,88.0,GL,1512937070,97.0,60.14,-45.24,30.07,14.9
123,San Cristobal,20.0,EC,1512932400,73.0,-0.9,-89.62,75.2,16.11
124,Qaanaaq,68.0,GL,1512937072,97.0,77.48,-69.36,14.36,2.59
125,Karratha,0.0,AU,1512937073,87.0,-20.74,116.85,69.08,8.63
126,Bethel,90.0,US,1512935760,55.0,41.37,-73.41,39.2,6.93
127,Sorong,92.0,ID,1512937074,100.0,-0.88,131.25,75.11,1.81
128,Seydi,0.0,TM,1512937074,82.0,39.48,62.91,21.52,6.85
129,Nieuw Amsterdam,20.0,SR,1512937075,94.0,5.88,-55.08,82.0,12.33
130,Carnarvon,92.0,AU,1512937076,99.0,-24.87,113.63,72.5,8.41
131,Atar,76.0,MR,1512937077,22.0,20.52,-13.05,63.5,8.19
132,Lao Cai,92.0,VN,1512937077,99.0,22.48,103.95,52.16,1.81
133,Hobart,75.0,AU,1512936000,67.0,-42.88,147.33,59.0,12.75
134,Kharp,0.0,RU,1512937078,56.0,66.8,65.81,-11.07,3.15
135,Hvide Sande,56.0,DK,1512935400,86.0,56.0,8.13,30.2,5.82
136,Hanna,12.0,CA,1512937079,84.0,51.63,-111.9,41.9,10.98
137,Muros,75.0,ES,1512936000,87.0,42.78,-9.06,48.2,23.04
138,Wewak,48.0,PG,1512937080,100.0,-3.55,143.63,74.98,2.04
139,Albany,76.0,AU,1512937081,85.0,-35.02,117.89,66.97,5.17
140,Khatanga,0.0,RU,1512937082,62.0,71.97,102.5,-13.05,14.9
141,Kabompo,80.0,ZM,1512937082,96.0,-13.59,24.2,66.11,3.38
142,Zyryanovsk,36.0,KZ,1512937083,64.0,49.74,84.27,1.9,2.15
143,Port Elizabeth,75.0,ZA,1512932400,67.0,-33.92,25.57,60.8,4.7
144,Upernavik,92.0,GL,1512937084,95.0,72.79,-56.15,29.26,2.93
145,Sept-Iles,40.0,CA,1512936000,62.0,50.2,-66.38,19.4,5.82
146,Arraial do Cabo,20.0,BR,1512932400,62.0,-22.97,-42.03,86.0,12.75
147,Kalmunai,32.0,LK,1512937086,99.0,7.42,81.82,70.7,2.71
148,Mar del Plata,0.0,AR,1512932400,49.0,-38.0,-57.56,68.0,20.8
149,Morros,76.0,BR,1512937086,97.0,-9.45,-46.3,71.6,6.73
150,Piacabucu,68.0,BR,1512937087,60.0,-10.41,-36.43,84.43,8.63
151,Shelburne,90.0,CA,1512936000,68.0,44.08,-80.2,28.4,8.05
152,Auki,44.0,SB,1512937087,100.0,-8.77,160.7,80.47,3.94
153,Labuhan,88.0,ID,1512937088,100.0,-6.88,112.21,79.66,7.18
154,Gizo,24.0,SB,1512937089,100.0,-8.1,156.84,84.83,10.65
155,Cape Town,0.0,ZA,1512932400,52.0,-33.93,18.42,66.2,25.28
156,Taoudenni,8.0,ML,1512937089,29.0,22.68,-3.98,55.31,7.74
157,Akhtubinsk,24.0,RU,1512937090,91.0,48.28,46.17,29.35,12.77
158,Cabo San Lucas,75.0,MX,1512931620,54.0,22.89,-109.91,80.6,6.93
159,Aljezur,92.0,PT,1512937091,95.0,37.32,-8.8,63.37,29.21
160,Hawera,0.0,NZ,1512937092,87.0,-39.59,174.28,66.56,14.34
161,Castro,20.0,CL,1512937093,76.0,-42.47,-73.77,66.97,6.17
162,Kurilsk,92.0,RU,1512937093,100.0,45.23,147.88,28.9,9.19
163,Luderitz,0.0,NA,1512932400,77.0,-26.65,15.16,64.4,25.28
164,Saldanha,0.0,ZA,1512936000,42.0,-33.01,17.94,68.0,5.82
165,Aden,32.0,YE,1512936888,99.0,12.78,45.04,78.98,13.44
166,Touros,80.0,BR,1512937095,81.0,-5.2,-35.46,80.83,10.2
167,Kholtoson,12.0,RU,1512937096,62.0,50.3,103.31,-16.56,2.59
168,Rio Grande,40.0,BR,1512932400,61.0,-32.03,-52.1,82.4,17.22
169,San Quintin,92.0,MX,1512937097,30.0,30.48,-115.95,72.01,3.04
170,Guerrero Negro,92.0,MX,1512937097,36.0,27.98,-114.06,73.54,3.71
171,Nisia Floresta,40.0,BR,1512932400,70.0,-6.09,-35.21,84.2,12.75
172,Hithadhoo,64.0,MV,1512937098,100.0,-0.6,73.08,80.38,4.72
173,Kiunga,92.0,PG,1512937099,100.0,-6.12,141.29,72.05,2.48
174,Leh,68.0,IN,1512937099,53.0,34.17,77.58,-0.81,1.7
175,Manicore,12.0,BR,1512937100,67.0,-5.81,-61.3,88.88,2.15
176,Chuy,0.0,UY,1512937101,60.0,-33.7,-53.46,71.47,17.47
177,Berlevag,75.0,NO,1512935400,100.0,70.86,29.09,32.0,10.29
178,Mecca,36.0,SA,1512932400,61.0,21.43,39.83,80.6,0.92
179,Timizart,0.0,DZ,1512937102,90.0,36.8,4.27,44.6,3.94
180,Port Lincoln,0.0,AU,1512937103,91.0,-34.73,135.87,64.99,11.54
181,Bandiagara,0.0,ML,1512937104,33.0,14.35,-3.61,64.45,9.31
182,Guymon,1.0,US,1512935580,7.0,36.68,-101.48,66.2,6.93
183,Lompoc,20.0,US,1512935880,13.0,34.64,-120.46,69.8,3.38
184,Tasiilaq,32.0,GL,1512935400,85.0,65.61,-37.64,23.0,5.82
185,Pokhara,0.0,NP,1512937071,68.0,28.23,83.98,41.14,2.48
186,Necochea,0.0,AR,1512937106,67.0,-38.55,-58.74,62.96,21.27
187,Samarai,76.0,PG,1512937106,100.0,-10.62,150.67,81.82,6.62
188,Faanui,80.0,PF,1512937107,100.0,-16.48,-151.75,81.68,11.99
189,Bengkulu,80.0,ID,1512937108,100.0,-3.8,102.27,77.9,5.95
190,Leua,56.0,AO,1512937108,99.0,-11.65,20.45,65.44,2.37
191,Buenos Aires,76.0,CR,1512937109,90.0,9.17,-83.33,76.46,1.92
192,Clinton,90.0,US,1512936000,73.0,42.59,-82.92,26.6,16.11
193,Khandbari,0.0,NP,1512937110,58.0,27.37,87.2,27.91,1.48
194,Ternate,44.0,ID,1512937110,100.0,0.8,127.4,79.93,4.05
195,Mahebourg,40.0,MU,1512932400,74.0,-20.41,57.7,78.8,11.41
196,Sabzevar,0.0,IR,1512936967,69.0,36.21,57.68,22.42,2.82
197,Palestine,1.0,US,1512935700,23.0,31.76,-95.63,64.4,5.82
198,Nuevitas,75.0,CU,1512931800,77.0,21.55,-77.26,66.2,18.34
199,Tucupita,64.0,VE,1512937113,67.0,9.06,-62.05,84.07,8.63
200,Kungurtug,12.0,RU,1512937114,55.0,50.6,97.52,-15.66,3.83
201,Predivinsk,64.0,RU,1512937115,59.0,57.07,93.44,5.0,5.84
202,Maputo,92.0,MZ,1512937116,66.0,-25.97,32.59,71.38,10.42
203,Katsuura,75.0,JP,1512934200,71.0,35.13,140.3,55.4,17.22
204,Adrar,0.0,DZ,1512936000,35.0,27.87,-0.29,57.2,8.05
205,Esperance,80.0,AU,1512937118,27.0,-33.87,121.9,80.11,16.24
206,Liaocheng,0.0,CN,1512937118,65.0,36.44,115.96,15.49,3.94
207,Gazanjyk,68.0,TM,1512937119,94.0,39.24,55.52,35.74,5.39
208,Wahiawa,40.0,US,1512932220,83.0,21.5,-158.02,75.2,9.98
209,Nhulunbuy,0.0,AU,1512936000,88.0,-12.23,136.77,78.8,6.06
210,Kaeo,56.0,NZ,1512937120,68.0,-35.1,173.78,70.66,4.05
211,Torbay,90.0,CA,1512936000,100.0,47.67,-52.73,55.4,19.46
212,Lima,0.0,PE,1512936897,54.0,-12.04,-77.03,69.22,3.04
213,Camacha,40.0,PT,1512936000,77.0,33.08,-16.33,64.4,10.29
214,Guaratinga,40.0,BR,1512936000,83.0,-16.57,-39.57,80.6,11.41
215,Eureka,1.0,US,1512935700,48.0,40.8,-124.16,64.4,3.36
216,Port Hueneme,75.0,US,1512935760,7.0,34.15,-119.2,82.4,16.11
217,Najran,0.0,SA,1512932400,21.0,17.49,44.13,51.8,1.59
218,Nicolas Bravo,20.0,MX,1512934860,47.0,18.45,-88.92,77.0,12.75
219,Gornyy,8.0,RU,1512937124,84.0,55.12,83.91,17.33,10.98
220,Challapata,56.0,BO,1512937124,71.0,-18.9,-66.77,49.42,4.16
221,Tromso,40.0,NO,1512935400,55.0,69.65,18.96,37.4,9.17
222,Alexandria,40.0,EG,1512932400,72.0,31.22,29.96,64.4,4.7
223,Chapais,20.0,CA,1512936000,70.0,49.78,-74.85,1.4,8.05
224,Ruidoso,1.0,US,1512935700,9.0,33.33,-105.67,55.4,4.7
225,Skeldon,8.0,GY,1512937127,96.0,5.88,-57.13,81.41,10.76
226,Ahipara,44.0,NZ,1512937128,76.0,-35.17,173.17,69.98,3.49
227,Muborak,0.0,UZ,1512937128,72.0,39.26,65.15,16.03,2.93
228,Roma,0.0,AU,1512937129,67.0,-26.58,148.78,69.85,9.08
229,Tukums,0.0,LV,1512935400,92.0,56.97,23.16,30.2,6.93
230,Road Town,40.0,VG,1512936000,62.0,18.42,-64.62,84.2,5.82
231,Yakovlevo,75.0,RU,1512934200,87.0,50.86,36.45,44.6,17.9
232,Kosh-Agach,44.0,RU,1512937131,64.0,50.0,88.67,-5.35,2.59
233,Kirakira,76.0,SB,1512937132,100.0,-10.45,161.92,82.31,5.06
234,Arkhangelskoye,92.0,RU,1512937132,97.0,55.85,35.33,38.17,13.67
235,Butaritari,64.0,KI,1512937133,100.0,3.07,172.79,80.6,8.19
236,Tahe,68.0,CN,1512937133,50.0,52.33,124.73,-10.12,7.63
237,Newport,1.0,US,1512935760,55.0,41.49,-71.31,41.0,6.93
238,Hasaki,75.0,JP,1512934920,100.0,35.73,140.83,53.6,2.24
239,Sinnamary,0.0,GF,1512937135,100.0,5.38,-52.95,79.61,7.52
240,Longyearbyen,20.0,SJ,1512935400,68.0,78.22,15.64,28.4,12.75
241,Riyadh,0.0,SA,1512932400,22.0,24.69,46.72,46.4,3.36
242,Hambantota,56.0,LK,1512937137,100.0,6.12,81.12,78.04,1.48
243,Burnie,12.0,AU,1512937137,100.0,-41.07,145.92,59.14,16.58
244,Te Anau,92.0,NZ,1512937138,95.0,-45.42,167.72,54.41,9.64
245,Padang,76.0,ID,1512937138,100.0,-0.95,100.35,79.3,3.38
246,Gamba,92.0,GA,1512937139,95.0,-2.65,10.0,73.9,3.15
247,Kormilovka,75.0,RU,1512934200,92.0,55.0,74.1,17.6,8.95
248,Portland,68.0,AU,1512937140,100.0,-38.33,141.6,60.22,4.72
249,Markivka,80.0,UA,1512937140,88.0,49.52,39.57,40.01,18.7
250,Bykovo,75.0,RU,1512934200,95.0,55.64,38.08,33.8,15.66
251,Mount Isa,0.0,AU,1512936000,27.0,-20.73,139.5,77.0,6.93
252,Juneau,90.0,US,1512935760,100.0,58.3,-134.42,44.6,6.93
253,Oistins,40.0,BB,1512932400,66.0,13.07,-59.53,84.2,12.75
254,Evensk,48.0,RU,1512937143,100.0,61.95,159.23,16.93,19.6
255,Griffith,0.0,AU,1512937144,65.0,-34.28,146.03,68.86,5.73
256,Port Blair,68.0,IN,1512937106,99.0,11.67,92.75,83.26,9.64
257,Mondlo,88.0,ZA,1512937145,95.0,-27.98,30.72,54.5,4.16
258,Meadow Lake,40.0,CA,1512936000,80.0,54.13,-108.43,41.0,20.8
259,Leningradskiy,36.0,RU,1512937146,100.0,69.38,178.42,10.36,18.03
260,Salalah,0.0,OM,1512931800,37.0,17.02,54.09,71.6,13.87
261,Santa Lucia,20.0,ES,1512936000,68.0,27.91,-15.54,66.2,11.41
262,Tiznit,0.0,MA,1512937131,84.0,29.58,-9.5,36.1,1.7
263,Bongor,24.0,TD,1512937147,41.0,10.28,15.37,72.95,9.53
264,Ruteng,48.0,ID,1512937148,99.0,-8.61,120.47,71.92,2.48
265,Mayo,40.0,CA,1512936000,92.0,63.59,-135.9,28.4,4.5
266,Kenai,40.0,US,1512935760,100.0,60.55,-151.26,35.6,5.82
267,Talnakh,88.0,RU,1512937150,84.0,69.49,88.4,7.25,19.15
268,Darnah,64.0,LY,1512937150,100.0,32.77,22.64,65.35,3.94
269,Svobodnyy,64.0,RU,1512937151,65.0,51.4,128.13,-8.64,11.1
270,Noumea,0.0,NC,1512936000,74.0,-22.28,166.46,78.8,2.24
271,Freeport,20.0,US,1512935760,55.0,40.66,-73.58,39.2,12.75
272,Kamenka,12.0,RU,1512937152,94.0,51.32,42.77,33.76,15.46
273,Hofn,0.0,IS,1512937153,100.0,64.25,-15.21,32.81,26.08
274,Visnes,40.0,NO,1512935400,74.0,59.36,5.22,33.8,12.75
275,Svetlyy,75.0,RU,1512934200,86.0,54.67,20.13,30.2,8.95
276,Alofi,75.0,NU,1512936000,74.0,-19.06,-169.92,78.8,5.82
277,Cap Malheureux,40.0,MU,1512932400,74.0,-19.98,57.61,78.8,11.41
278,Georgetown,12.0,SH,1512937156,100.0,-7.93,-14.42,75.61,14.79
279,Lambakin,90.0,PH,1512932400,100.0,14.75,120.87,80.6,2.24
280,Katherine,0.0,AU,1512934200,74.0,-14.47,132.27,80.6,5.39
281,Mackay,75.0,AU,1512932400,88.0,-21.15,149.2,73.4,6.93
282,Elbistan,12.0,TR,1512937158,77.0,38.21,37.2,11.21,2.15
283,Tete,80.0,MZ,1512937159,39.0,-16.16,33.59,88.21,12.66
284,Nizhniy Baskunchak,8.0,RU,1512937159,87.0,48.22,46.83,26.06,12.55
285,Laurel,75.0,US,1512935760,52.0,39.1,-76.85,41.0,8.05
286,Les Cayes,88.0,HT,1512937160,100.0,18.2,-73.75,80.51,5.61
287,Cockburn Town,92.0,BS,1512937161,100.0,24.03,-74.52,73.27,25.3
288,Grand Gaube,40.0,MU,1512932400,74.0,-20.01,57.66,78.8,11.41
289,Conde,20.0,BR,1512932400,66.0,-7.26,-34.91,84.2,13.87
290,Kabo,0.0,CF,1512937163,51.0,7.7,18.63,75.61,3.94
291,Paamiut,0.0,GL,1512937163,89.0,61.99,-49.67,28.45,2.71
292,Dudinka,80.0,RU,1512937163,84.0,69.41,86.18,9.41,22.62
293,Port Hawkesbury,90.0,CA,1512936000,100.0,45.62,-61.35,35.6,16.11
294,Ust-Nera,44.0,RU,1512937164,0.0,64.57,143.2,-44.73,1.92
295,Bourail,68.0,NC,1512937165,88.0,-21.57,165.48,76.15,1.92
296,Morro Bay,75.0,US,1512935760,25.0,35.37,-120.85,62.6,4.83
297,Kudahuvadhoo,92.0,MV,1512937166,100.0,2.67,72.89,80.56,3.6
298,Santa Barbara,68.0,MX,1512937167,52.0,26.8,-105.82,50.14,9.98
299,Kaputa,76.0,ZM,1512937167,100.0,-8.47,29.66,63.37,2.04
300,Caruray,12.0,PH,1512937168,100.0,10.31,119.01,80.65,5.84
301,Nizhniy Kuranakh,36.0,RU,1512937168,44.0,58.84,125.49,-28.71,1.7
302,Sistranda,0.0,NO,1512935400,100.0,63.73,8.83,32.0,26.4
303,Las Juntas,40.0,MX,1512935220,66.0,19.42,-104.7,84.2,11.41
304,Lorengau,20.0,PG,1512937170,100.0,-2.02,147.27,81.82,7.85
305,Grand-Bourg,75.0,GP,1512934200,61.0,15.88,-61.31,82.4,8.05
306,Stromness,75.0,GB,1512935400,86.0,58.97,-3.3,37.4,1.12
307,Smithers,40.0,CA,1512936000,92.0,54.78,-127.17,23.0,1.92
308,Poum,92.0,NC,1512937172,100.0,-20.23,164.02,75.56,5.61
309,Naranjo,75.0,CR,1512932400,68.0,10.1,-84.38,69.8,19.46
310,Ketchikan,90.0,US,1512935760,87.0,55.34,-131.65,53.6,8.05
311,Skelleftea,90.0,SE,1512935400,89.0,64.75,20.95,32.0,6.93
312,La Baule-Escoublac,92.0,FR,1512936000,93.0,47.29,-2.36,50.0,9.17
313,Puerto Escondido,5.0,MX,1512934800,65.0,15.85,-97.07,78.8,6.73
314,Marica,20.0,BR,1512932400,61.0,-22.92,-42.82,84.2,17.22
315,Wahpeton,1.0,US,1512934500,68.0,46.27,-96.61,30.2,4.7
316,Nabire,12.0,ID,1512937176,95.0,-3.37,135.48,68.05,2.37
317,Rockhampton,0.0,AU,1512936000,83.0,-23.38,150.5,71.6,8.05
318,Lagunas,0.0,PE,1512937177,35.0,-5.23,-75.68,99.19,5.39
319,Alta Floresta,48.0,BR,1512937177,95.0,-9.88,-56.09,75.11,2.93
320,Namibe,68.0,AO,1512937178,100.0,-15.2,12.15,72.5,4.38
321,Fonte Boa,36.0,BR,1512937179,75.0,-2.5,-66.27,85.46,3.83
322,Kahului,75.0,US,1512935760,83.0,20.89,-156.47,75.2,9.17
323,Broken Hill,0.0,AU,1512937180,56.0,-31.95,141.43,64.72,10.65
324,Pisco,0.0,PE,1512932400,77.0,-13.7,-76.22,69.8,10.29
325,Kavieng,44.0,PG,1512937181,100.0,-2.57,150.8,83.75,9.98
326,Nikolayevskaya,92.0,RU,1512937182,82.0,47.61,41.5,39.2,17.81
327,Zhoucun,0.0,CN,1512937182,65.0,36.82,117.82,8.47,2.59
328,Shahr-e Kord,0.0,IR,1512932400,23.0,32.33,50.86,24.8,4.7
329,Souillac,40.0,MU,1512932400,74.0,-20.52,57.52,78.8,11.41
330,Adolfo Lopez Mateos,68.0,MX,1512937184,42.0,28.47,-107.3,45.73,7.74
331,Sao Joao da Barra,40.0,BR,1512932400,58.0,-21.64,-41.05,82.4,13.87
332,Kieta,92.0,PG,1512937185,100.0,-6.22,155.63,75.7,6.4
333,Chicama,20.0,PE,1512932400,77.0,-7.84,-79.15,69.8,12.75
334,Irbeyskoye,48.0,RU,1512937186,79.0,55.64,95.45,-4.68,3.38
335,Sovetskiy,68.0,RU,1512937187,81.0,61.36,63.58,13.87,6.96
336,Matara,20.0,LK,1512937187,100.0,5.95,80.54,75.16,2.26
337,Aksaray,40.0,TR,1512935400,76.0,38.37,34.03,42.8,9.17
338,Ambilobe,92.0,MG,1512937188,98.0,-13.2,49.05,72.37,2.37
339,Shimoda,75.0,JP,1512931500,93.0,34.67,138.95,46.4,3.36
340,Petatlan,40.0,MX,1512934980,62.0,17.52,-101.27,87.8,9.17
341,San Patricio,40.0,MX,1512935220,66.0,19.22,-104.7,84.2,11.41
342,Svetlogorsk,75.0,RU,1512934200,86.0,54.94,20.15,30.2,8.95
343,Sambava,36.0,MG,1512937191,100.0,-14.27,50.17,80.2,4.27
344,Caravelas,68.0,BR,1512937192,100.0,-17.71,-39.25,79.12,9.19
345,Humberto de Campos,44.0,BR,1512937192,80.0,-2.6,-43.46,83.53,9.75
346,Woodstock,90.0,CA,1512936000,79.0,43.13,-80.75,28.4,12.75
347,Hami,0.0,CN,1512937193,69.0,42.8,93.45,12.52,9.08
348,Bonfim,68.0,BR,1512937193,39.0,3.08,-59.95,93.88,6.96
349,Tefe,40.0,BR,1512932400,70.0,-3.35,-64.71,91.4,4.7
350,Aklavik,90.0,CA,1512936000,84.0,68.22,-135.01,6.8,3.36
351,Florianopolis,0.0,BR,1512932400,66.0,-27.6,-48.55,84.2,6.93
352,Mjolby,24.0,SE,1512935400,92.0,58.33,15.12,32.0,5.82
353,Warmbad,0.0,NA,1512937197,23.0,-28.45,18.73,74.71,13.11
354,Quarai,0.0,BR,1512937198,21.0,-30.39,-56.45,88.84,15.23
355,Tenenkou,0.0,ML,1512937198,37.0,14.46,-4.92,67.51,11.43
356,Saint-Pierre,75.0,PM,1512936000,100.0,46.77,-56.17,48.2,35.57
357,Greymouth,56.0,NZ,1512937200,97.0,-42.47,171.2,61.75,9.19
358,Flin Flon,90.0,CA,1512936000,85.0,54.77,-101.86,14.0,8.05
359,Beringovskiy,48.0,RU,1512937201,100.0,63.05,179.32,22.24,25.3
360,Grand-Santi,76.0,GF,1512937202,72.0,4.25,-54.38,82.27,3.38
361,Olinda,20.0,BR,1512932400,70.0,-8.01,-34.86,84.2,13.87
362,Jardim,68.0,BR,1512937123,75.0,-21.48,-56.14,86.5,4.61
363,Vizinga,88.0,RU,1512937203,82.0,61.07,50.1,13.42,5.39
364,Hamilton,75.0,BM,1512932100,83.0,32.29,-64.78,75.2,20.8
365,Gornopravdinsk,76.0,RU,1512937204,80.0,60.05,69.9,10.85,6.96
366,Lagoa,64.0,PT,1512937204,100.0,39.05,-27.98,65.93,22.84
367,Quezailica,44.0,HN,1512937205,70.0,14.88,-88.73,60.94,4.38
368,Comodoro Rivadavia,0.0,AR,1512932400,48.0,-45.87,-67.5,66.2,14.99
369,Okhotsk,68.0,RU,1512937206,100.0,59.38,143.3,-1.44,8.63
370,Mariano Comense,90.0,IT,1512935400,99.0,45.69,9.18,32.0,1.03
371,Nuuk,64.0,GL,1512935400,100.0,64.18,-51.72,28.4,11.41
372,Corinto,20.0,NI,1512932400,38.0,12.48,-87.17,87.8,4.7
373,Nikel,75.0,RU,1512935400,80.0,69.41,30.22,30.2,4.7
374,Yerbogachen,24.0,RU,1512937209,56.0,61.28,108.01,-32.4,2.93
375,Zharkent,0.0,KZ,1512937210,66.0,44.16,80.0,-1.3,2.37
376,Bibiani,0.0,GH,1512937211,78.0,6.46,-2.32,68.9,2.59
377,Santiago de Cao,20.0,PE,1512932400,77.0,-7.96,-79.24,69.8,12.75
378,Chapada dos Guimaraes,75.0,BR,1512932400,70.0,-15.46,-55.75,84.2,8.05
379,Samagaltay,76.0,RU,1512937212,74.0,50.6,95.0,-13.77,2.37
380,Thinadhoo,32.0,MV,1512937213,100.0,0.53,72.93,80.2,3.94
381,Chaoyang,0.0,CN,1512937214,25.0,41.57,120.46,5.77,9.86
382,Arman,68.0,RU,1512932400,60.0,59.7,150.17,8.6,15.66
383,Kuching,75.0,MY,1512936000,100.0,1.55,110.33,73.4,2.24
384,Amiens,68.0,FR,1512936000,93.0,49.9,2.3,44.6,13.87
385,Vila Velha,90.0,BR,1512932400,74.0,-20.33,-40.29,80.6,11.41
386,Tucuma,24.0,BR,1512937216,78.0,-0.18,-50.05,84.88,10.87
387,Hendrina,92.0,ZA,1512937217,99.0,-26.16,29.72,55.27,6.06
388,Astana,90.0,KZ,1512934200,92.0,51.18,71.45,12.2,13.42
389,Iracoubo,44.0,GF,1512937218,76.0,5.48,-53.2,80.15,4.94
390,Tessalit,12.0,ML,1512937218,34.0,20.2,1.01,54.73,7.4
391,Pontes e Lacerda,92.0,BR,1512937219,100.0,-15.23,-59.34,72.23,5.84
392,Anjangaon,0.0,IN,1512937220,74.0,21.16,77.31,54.37,2.59
393,Mackenzie,1.0,CA,1512936000,76.0,55.3,-123.17,32.0,8.05
394,Malatya,0.0,TR,1512935400,86.0,38.5,38.0,26.6,2.24
395,Yunyang,64.0,CN,1512937222,54.0,33.45,112.71,27.28,4.83
396,Sitka,90.0,US,1512935760,57.0,57.05,-135.33,50.0,16.11
397,Yakeshi,36.0,CN,1512937223,64.0,49.28,120.73,-15.57,8.75
398,Pravia,75.0,ES,1512936000,82.0,43.49,-6.15,57.2,12.75
399,Wawa,20.0,CA,1512936000,60.0,47.98,-84.78,5.0,6.93
400,Dergachi,92.0,RU,1512937225,94.0,51.23,48.77,29.71,9.75
401,Makokou,92.0,GA,1512937226,99.0,0.57,12.86,68.05,1.36
402,Clyde River,20.0,CA,1512932400,84.0,70.47,-68.59,1.4,8.05
403,Homer,90.0,US,1512935580,93.0,59.64,-151.55,39.2,19.71
404,Bulawayo,0.0,ZW,1512937227,49.0,-20.15,28.58,70.03,11.21
405,Bowen,0.0,AU,1512932400,94.0,-20.02,148.23,69.8,4.7
406,Shakawe,12.0,BW,1512937228,56.0,-18.37,21.85,75.07,10.09
407,Cidreira,88.0,BR,1512937229,62.0,-30.18,-50.21,77.0,17.25
408,Bondo,20.0,CD,1512937230,67.0,3.81,23.69,76.33,3.49
409,Mariinsk,80.0,RU,1512937231,81.0,56.21,87.75,6.13,3.6
410,Moroni,20.0,KM,1512932400,83.0,-11.7,43.26,77.0,3.36
411,Lokoja,64.0,NG,1512937232,60.0,7.8,6.74,79.66,3.15
412,Vanavara,32.0,RU,1512937233,73.0,60.34,102.28,-24.52,2.71
413,Bastia,75.0,FR,1512936000,76.0,42.7,9.45,60.8,3.36
414,Camana,0.0,PE,1512937234,100.0,-16.62,-72.71,65.44,4.83
415,Mwense,76.0,ZM,1512937234,97.0,-10.38,28.7,66.11,3.6
416,Leshukonskoye,88.0,RU,1512937235,85.0,64.9,45.76,18.5,7.4
417,Antofagasta,20.0,CL,1512932400,64.0,-23.65,-70.4,68.0,16.11
418,Kloulklubed,40.0,PW,1512935520,100.0,7.04,134.26,77.0,3.94
419,Rawson,0.0,AR,1512937237,76.0,-43.3,-65.1,62.56,6.51
420,Garoua,8.0,CM,1512936000,36.0,9.3,13.4,80.6,3.71
421,Fortuna,1.0,US,1512935700,47.0,40.6,-124.16,64.4,6.93
422,Camopi,76.0,GF,1512937240,86.0,3.17,-52.32,80.02,3.83
423,San Felipe,56.0,VE,1512937241,78.0,10.34,-68.74,76.01,5.61
424,Dharchula,0.0,IN,1512937241,60.0,29.85,80.53,32.0,1.92
425,Lieksa,92.0,FI,1512937241,91.0,63.32,30.02,30.56,5.61
426,Nerchinsk,0.0,RU,1512937242,33.0,51.98,116.58,-23.76,4.27
427,Duekoue,48.0,CI,1512937243,64.0,6.75,-7.35,78.35,4.38
428,Seoul,1.0,KR,1512935700,62.0,37.57,126.98,26.6,13.87
429,Tura,76.0,RU,1512937243,71.0,64.28,100.25,-16.47,2.59
430,Whyalla,0.0,AU,1512936000,93.0,-33.03,137.58,62.6,6.93
431,Gazojak,20.0,TM,1512937244,88.0,41.19,61.4,16.39,3.38
432,Fairbanks,90.0,US,1512935880,92.0,64.84,-147.72,17.6,3.6
433,Purpe,68.0,RU,1512937246,76.0,64.48,76.69,5.5,5.95
434,Mareeba,75.0,AU,1512936000,73.0,-17.0,145.43,77.0,11.41
435,Sabang,76.0,ID,1512937247,100.0,5.89,95.32,80.33,7.29
436,Ouro Preto do Oeste,48.0,BR,1512937247,68.0,-10.75,-62.22,87.13,3.27
437,Bronte,0.0,IT,1512935400,80.0,37.79,14.83,41.0,6.93
438,Arlit,0.0,NE,1512937248,31.0,18.74,7.39,57.2,10.65
439,Sao Filipe,12.0,CV,1512937249,90.0,14.9,-24.5,77.86,13.78
440,Senador Pompeu,88.0,BR,1512937249,43.0,-5.59,-39.37,86.23,8.3
441,Hermiston,90.0,US,1512935580,86.0,45.84,-119.29,33.8,4.7
442,Moen,75.0,NO,1512935400,64.0,69.13,18.61,37.4,16.11
443,Los Llanos de Aridane,20.0,ES,1512936000,63.0,28.66,-17.92,66.2,8.05
444,Toamasina,40.0,MG,1512932400,83.0,-18.17,49.38,80.6,6.93
445,Assiniboia,88.0,CA,1512937102,59.0,49.63,-105.98,41.95,10.54
446,Luanda,75.0,AO,1512932400,78.0,-8.84,13.23,78.8,6.93
447,Claveria,100.0,PH,1512937252,100.0,18.61,121.08,73.27,16.91
448,Bahia Blanca,0.0,AR,1512936983,49.0,-38.72,-62.27,74.03,20.83
449,Buzmeyin,0.0,TM,1512932400,74.0,38.05,58.21,35.6,6.93
450,Wajima,48.0,JP,1512937254,94.0,37.4,136.9,51.58,24.07
451,Garissa,0.0,KE,1512937254,52.0,-0.45,39.64,77.0,6.73
452,Ingleside,1.0,US,1512935700,36.0,27.88,-97.21,66.2,8.05
453,Topchanchi,92.0,IN,1512937255,94.0,23.9,86.2,65.53,2.93
454,Semporna,75.0,MY,1512936000,100.0,4.48,118.61,75.2,3.15
455,Kruisfontein,76.0,ZA,1512937256,84.0,-34.0,24.73,60.26,7.96
456,Ancud,20.0,CL,1512937257,74.0,-41.87,-73.82,69.53,6.06
457,Muzhi,0.0,RU,1512937257,49.0,65.37,64.67,-8.19,3.04
458,Baiyin,36.0,CN,1512932400,61.0,36.56,104.21,12.2,4.47
459,Alghero,75.0,IT,1512935400,87.0,40.56,8.32,60.8,20.8
460,Ucluelet,90.0,CA,1512936000,81.0,48.93,-125.55,48.2,12.75
461,Baruun-Urt,0.0,MN,1512937260,29.0,46.68,113.28,-22.09,4.16
462,Khorol,92.0,UA,1512937260,95.0,49.78,33.28,31.06,25.3
463,Rio Gallegos,40.0,AR,1512932400,55.0,-51.62,-69.22,64.4,18.34
464,Matamoros,90.0,MX,1512935160,56.0,25.53,-103.25,51.8,4.27
465,Casa Nova,90.0,BR,1512932400,88.0,-9.42,-41.13,73.4,6.93
466,Matagami,90.0,CA,1512936060,77.0,49.75,-77.63,5.0,9.17
467,Kutum,0.0,SD,1512937264,57.0,14.2,24.67,52.93,3.94
468,Buala,20.0,SB,1512937264,95.0,-8.14,159.59,82.36,3.94
469,Bubaque,0.0,GW,1512936000,57.0,11.28,-15.83,77.0,3.36
470,Mahibadhoo,12.0,MV,1512937265,100.0,3.78,72.97,80.78,3.38
471,Duverge,40.0,DO,1512936000,62.0,18.38,-71.52,86.0,18.34
472,Alindao,24.0,CF,1512937266,72.0,5.03,21.21,71.92,3.15
473,Teguise,20.0,ES,1512936000,77.0,29.06,-13.56,64.4,3.36
474,Vysokogornyy,32.0,RU,1512937267,32.0,50.12,139.15,-23.17,2.71
475,La Crosse,90.0,US,1512935700,68.0,43.8,-91.24,30.2,9.17
476,Lugovoy,76.0,RU,1512937268,87.0,58.35,45.5,21.38,7.63
477,Adre,0.0,TD,1512937269,43.0,13.47,22.2,58.28,5.39
478,Smolensk,92.0,RU,1512937269,96.0,54.78,32.04,29.17,11.54
479,Ambon,64.0,ID,1512937270,100.0,-3.7,128.18,81.5,2.37
480,Effingham,1.0,US,1512936900,45.0,39.12,-88.54,48.2,11.41
481,Baturaja,76.0,ID,1512937271,99.0,-4.13,104.17,70.61,3.04
482,Murgab,5.0,TM,1512932400,74.0,37.5,61.97,30.2,6.93
483,Zhangjiakou,56.0,CN,1512937272,38.0,40.81,114.88,9.01,8.19
484,Meulaboh,80.0,ID,1512937273,100.0,4.14,96.13,74.93,2.59
485,Wokha,88.0,IN,1512937274,100.0,26.1,94.27,64.36,2.37
486,Amos,75.0,CA,1512936000,77.0,48.57,-78.12,6.8,5.82
487,Vila Franca do Campo,75.0,PT,1512936000,88.0,37.72,-25.43,66.2,24.16
488,Imeni Morozova,90.0,RU,1512934200,93.0,59.98,31.04,32.0,2.24
489,Imbituba,0.0,BR,1512932400,66.0,-28.24,-48.67,84.2,6.93
490,Peterhead,20.0,GB,1512935400,73.0,57.51,-1.8,26.6,3.36
491,Lavrentiya,8.0,RU,1512937277,100.0,65.58,-171.0,20.89,36.15
492,Chupaca,12.0,PE,1512937278,22.0,-12.07,-75.28,64.27,2.93
493,Zhicheng,8.0,CN,1512937278,84.0,30.3,111.5,31.78,2.59
494,Ilulissat,48.0,GL,1512935400,51.0,69.22,-51.1,35.6,13.87
495,Verkhoyansk,24.0,RU,1512937279,0.0,67.54,133.38,-48.96,1.7
496,Tigil,68.0,RU,1512937280,83.0,57.8,158.67,30.2,16.69
497,Vanimo,68.0,PG,1512937281,100.0,-2.67,141.3,80.83,4.27
498,Yulara,24.0,AU,1512936000,24.0,-25.24,130.99,68.0,6.93
499,Sorland,20.0,NO,1512935400,55.0,67.67,12.69,39.2,10.29
500,Bonavista,100.0,CA,1512937282,78.0,48.65,-53.11,48.79,21.83
501,Maldonado,0.0,UY,1512932400,56.0,-34.9,-54.95,71.6,11.41
502,Damghan,0.0,IR,1512937284,70.0,36.17,54.35,23.68,2.59
503,Tabou,8.0,CI,1512937284,100.0,4.42,-7.35,79.75,8.63
504,Chumikan,20.0,RU,1512937284,70.0,54.72,135.31,-15.57,7.18
505,Havre-Saint-Pierre,90.0,CA,1512936000,92.0,50.23,-63.6,23.0,14.99
506,Kitimat,90.0,CA,1512936000,94.0,54.05,-128.65,33.8,10.29
507,Marion,90.0,US,1512935700,63.0,40.59,-83.13,32.0,17.22
508,Yertarskiy,64.0,RU,1512937286,80.0,56.79,64.3,10.54,5.84
509,Coahuayana,75.0,MX,1512934800,34.0,18.73,-103.68,80.6,12.75
510,Wakkanai,92.0,JP,1512937287,100.0,45.41,141.67,34.75,38.05
511,Malanje,36.0,AO,1512937288,97.0,-9.54,16.34,66.38,4.61
512,Mitsamiouli,20.0,KM,1512936000,78.0,-11.38,43.28,78.8,2.24
513,Angoram,12.0,PG,1512937289,100.0,-4.06,144.07,74.8,2.82
514,Agdas,0.0,AZ,1512937290,79.0,40.65,47.48,25.48,0.47
515,Canavieiras,80.0,BR,1512937290,94.0,-15.68,-38.95,76.24,9.64
516,Kuryk,48.0,KZ,1512937291,100.0,43.2,51.65,41.45,15.79
517,Lubango,76.0,AO,1512937292,87.0,-14.92,13.49,68.41,2.48
518,Mahina,75.0,PF,1512936000,66.0,-17.51,-149.49,86.0,17.22
519,Kachiry,32.0,KZ,1512937293,82.0,53.07,76.1,15.13,9.75
520,Klyuchi,32.0,RU,1512937294,78.0,52.27,79.17,14.5,10.98
521,Lagos,75.0,PT,1512936000,77.0,37.1,-8.67,64.4,20.8
522,Brae,20.0,GB,1512935400,86.0,60.4,-1.35,35.6,11.54
523,Shache,12.0,CN,1512937295,68.0,38.42,77.24,17.74,5.28
524,Opuwo,12.0,NA,1512937296,79.0,-18.06,13.84,65.35,3.83
525,Kongolo,80.0,CD,1512937297,100.0,-5.38,27.0,68.5,2.71
526,Birao,0.0,CF,1512937297,42.0,10.28,22.79,69.22,7.85
527,Shubarkuduk,76.0,KZ,1512937298,88.0,49.14,56.49,18.82,4.94
528,Redcar,40.0,GB,1512935400,92.0,54.62,-1.06,32.0,10.29
529,Guayaramerin,24.0,BO,1512937300,71.0,-10.84,-65.36,85.78,2.48
530,Kirillov,92.0,RU,1512937300,91.0,59.86,38.38,28.54,17.02
531,Berlin,20.0,US,1512935700,68.0,44.47,-71.19,33.8,4.7
532,Ugoofaaru,92.0,MV,1512937302,100.0,5.67,73.0,81.68,4.38
533,Vrangel,8.0,RU,1512937302,100.0,42.73,133.08,21.38,34.58
534,Pemangkat,88.0,ID,1512937303,100.0,1.17,108.97,73.76,2.26
535,Port Hardy,75.0,CA,1512936000,53.0,50.7,-127.42,51.8,6.93
536,Bandarbeyla,12.0,SO,1512937304,100.0,9.49,50.81,76.73,24.07
537,Muyezerskiy,88.0,RU,1512937304,87.0,63.93,31.65,30.79,6.96
538,Puerto Varas,20.0,CL,1512932400,68.0,-41.32,-72.99,68.0,13.87
539,Aborlan,24.0,PH,1512937305,100.0,9.44,118.55,81.86,3.6
540,Kibre Mengist,0.0,ET,1512937306,72.0,5.88,38.98,48.11,2.82
541,Pangnirtung,90.0,CA,1512936000,85.0,66.15,-65.71,12.2,2.24
542,Pasighat,0.0,IN,1512937307,84.0,28.07,95.33,52.93,1.92
543,Shizunai,92.0,JP,1512937308,96.0,42.33,142.37,41.05,13.89
544,Awbari,0.0,LY,1512937308,71.0,26.59,12.78,37.58,3.6
545,Ilheus,64.0,BR,1512937309,100.0,-14.79,-39.05,75.25,6.73
546,Valdivia,0.0,CL,1512932400,50.0,-39.81,-73.25,77.0,11.41
547,Chernyshevskiy,48.0,RU,1512937311,71.0,63.01,112.47,-24.03,5.17
548,Half Moon Bay,20.0,US,1512935760,41.0,37.46,-122.43,64.4,5.82
549,Itacoatiara,36.0,BR,1512937312,79.0,-3.14,-58.44,82.54,2.71
550,San Miguel de Cauri,36.0,PE,1512937313,80.0,-10.1,-76.58,54.86,3.94
551,Port Augusta,0.0,AU,1512936000,93.0,-32.5,137.77,62.6,6.93
552,Vieux-Habitants,75.0,GP,1512936000,65.0,16.06,-61.77,82.4,10.29
553,Axim,32.0,GH,1512937315,99.0,4.87,-2.24,82.99,8.63
554,Mount Gambier,32.0,AU,1512937315,95.0,-37.83,140.77,56.35,3.04
555,Lyskovo,64.0,RU,1512937316,95.0,56.03,45.04,25.21,12.55
556,Lishu,48.0,CN,1512937317,60.0,43.3,124.33,1.58,11.43
557,Beidao,0.0,CN,1512937317,79.0,34.57,105.89,17.02,3.6
558,Mbekenyera,88.0,TZ,1512937318,96.0,-10.0,38.98,72.28,4.61
559,Huanan,64.0,CN,1512937318,76.0,46.22,130.52,-7.56,9.19
560,Luganville,12.0,VU,1512937319,100.0,-15.53,167.17,81.01,7.29
561,Macia,56.0,MZ,1512937320,70.0,-25.03,33.1,71.92,8.41
562,Guaymas,90.0,MX,1512935040,40.0,27.93,-110.9,73.4,10.29
563,Dzhebariki-Khaya,8.0,RU,1512937321,0.0,62.22,135.8,-47.29,1.92
564,Kaabong,0.0,UG,1512937321,59.0,3.48,34.15,61.48,4.72
565,Sisimiut,92.0,GL,1512937322,100.0,66.94,-53.67,24.08,4.72
566,Indiana,1.0,US,1512936900,51.0,40.0,-86.25,37.4,14.99
567,Ilhabela,0.0,BR,1512937194,100.0,-23.78,-45.36,73.81,4.72
568,Ola,68.0,RU,1512932400,60.0,59.58,151.28,8.6,15.66
569,Maiduguri,0.0,NG,1512937281,56.0,11.85,13.16,64.45,4.72
570,Orlik,32.0,RU,1512937324,47.0,52.52,99.83,-12.33,2.93
571,Isiro,64.0,CD,1512937324,90.0,2.77,27.62,71.51,1.59
572,Otjimbingwe,12.0,NA,1512937325,54.0,-22.35,16.13,72.19,2.37
573,Imeni Poliny Osipenko,24.0,RU,1512937326,69.0,52.42,136.49,-9.67,7.74
574,Mana,76.0,GF,1512937326,74.0,5.66,-53.78,80.65,4.05
575,Xiongyue,0.0,CN,1512937326,31.0,40.18,122.12,7.03,11.99
576,Wanning,80.0,CN,1512937327,100.0,18.8,110.4,69.26,14.0
577,Peace River,20.0,CA,1512936000,60.0,56.25,-117.29,41.0,20.8
578,Diffa,0.0,NE,1512937328,41.0,13.32,12.61,66.34,9.08
579,Dondo,40.0,MZ,1512936000,83.0,-19.61,34.74,78.8,12.75
580,Zhanaozen,68.0,KZ,1512937329,94.0,43.3,52.8,31.28,9.42
581,Khorramshahr,0.0,IR,1512932400,93.0,30.44,48.17,48.2,4.7
582,Zubtsov,92.0,RU,1512937330,96.0,56.18,34.59,38.35,15.35
583,Jawhar,0.0,SO,1512937330,68.0,2.78,45.5,73.09,8.86
584,La Ronge,90.0,CA,1512936600,100.0,55.1,-105.28,26.6,3.36
585,Monte Patria,0.0,CL,1512937332,74.0,-30.69,-70.95,67.73,2.37
586,Mishelevka,0.0,RU,1512937332,72.0,52.86,103.17,-16.92,4.94
587,Almenara,88.0,BR,1512937333,99.0,-16.18,-40.69,73.0,2.26
588,Oussouye,0.0,SN,1512936000,64.0,12.48,-16.55,82.4,4.05
589,Taicheng,0.0,CN,1512937334,46.0,38.73,113.23,17.29,4.94
590,Santa Maria a Vico,75.0,IT,1512935700,58.0,41.03,14.47,53.6,10.29
591,Paka,56.0,MY,1512932400,100.0,4.64,103.44,71.6,2.71
592,Santa Cruz,0.0,CR,1512936000,48.0,10.26,-85.59,86.0,6.93
593,Madimba,92.0,TZ,1512937336,100.0,-10.4,40.33,78.08,8.41
594,Talakan,32.0,RU,1512937337,70.0,50.32,130.37,-24.21,2.59
595,Mugur-Aksy,68.0,RU,1512937337,62.0,50.35,90.5,-1.8,2.15
596,Tomatlan,0.0,MX,1512937337,27.0,19.93,-105.25,85.96,2.93
597,Barkhan,0.0,PK,1512937338,85.0,29.9,69.53,34.12,2.59
598,Menongue,44.0,AO,1512937338,94.0,-14.66,17.69,64.81,3.04
599,Saratoga Springs,90.0,US,1512935640,55.0,43.08,-73.78,37.4,8.05
600,Iquitos,75.0,PE,1512932400,56.0,-3.75,-73.25,93.2,6.93
601,Kulhudhuffushi,68.0,MV,1512937340,100.0,6.62,73.07,79.21,1.36
602,Coquimbo,75.0,CL,1512932400,68.0,-29.95,-71.34,64.4,9.17
603,Barabai,48.0,ID,1512937341,91.0,-2.58,115.38,76.01,2.15
604,Alassio,75.0,IT,1512935700,93.0,44.0,8.17,39.2,1.12
605,Marsabit,0.0,KE,1512937342,45.0,2.33,37.99,74.3,10.98
606,College,90.0,US,1512935880,92.0,64.86,-147.8,17.6,3.6
607,Shibetsu,92.0,JP,1512937343,100.0,43.66,145.13,34.48,23.51
608,Rio Negrinho,32.0,BR,1512937344,50.0,-26.25,-49.52,79.48,4.05
609,Pouembout,88.0,NC,1512937345,96.0,-21.13,164.9,72.82,1.59
610,Abbeville,1.0,US,1512936900,33.0,29.97,-92.13,60.8,3.36
611,Rieti,92.0,IT,1512937346,99.0,42.41,12.86,45.86,10.42
612,Gorontalo,80.0,ID,1512937346,97.0,0.54,123.06,74.08,1.36
613,Ardesen,0.0,TR,1512934200,93.0,41.19,40.99,51.8,24.16
614,Pathein,0.0,MM,1512937348,92.0,16.78,94.73,71.51,2.59
615,Kaniama,88.0,CD,1512937348,100.0,-7.57,24.18,66.65,1.7
616,Kathmandu,20.0,NP,1512935400,87.0,27.72,85.32,50.0,3.36
617,Antsla,90.0,EE,1512935400,80.0,57.83,26.54,30.2,5.82
618,Bonthe,0.0,SL,1512937349,75.0,7.53,-12.51,81.55,5.17
619,Sakaiminato,75.0,JP,1512932400,57.0,35.55,133.23,48.2,18.34
620,Umkomaas,88.0,ZA,1512937350,95.0,-30.21,30.8,58.6,3.15
621,Mayumba,68.0,GA,1512937351,99.0,-3.43,10.66,75.88,3.49
622,Kuala Pilah,75.0,MY,1512936000,88.0,2.74,102.25,78.8,1.12
623,Anori,36.0,BR,1512937352,84.0,-3.77,-61.64,83.17,3.27
624,Voinesti,0.0,RO,1512936000,86.0,47.07,27.42,28.4,5.82
625,Dolores,0.0,AR,1512937353,38.0,-36.31,-57.68,78.49,18.7
626,Keti Bandar,48.0,PK,1512937354,100.0,24.14,67.45,66.56,19.82
627,Pierre,1.0,US,1512935580,24.0,44.37,-100.35,55.4,13.87
628,Camalu,92.0,MX,1512937354,30.0,30.85,-116.07,72.01,3.04
629,Chara,0.0,RU,1512937355,75.0,56.91,118.26,-39.96,1.36
630,Tupik,0.0,RU,1512937356,57.0,54.43,119.93,-21.06,5.84
631,Bom Jesus,80.0,BR,1512937356,91.0,-9.07,-44.36,74.98,5.39
632,Vilyuysk,32.0,RU,1512937357,58.0,63.76,121.62,-32.49,4.72
633,Korla,0.0,CN,1512937357,67.0,41.76,86.15,5.23,1.59
634,San Carlos,76.0,NI,1512937358,48.0,11.12,-84.78,83.71,9.53
635,Reconquista,0.0,AR,1512937359,28.0,-29.15,-59.65,92.03,14.67
636,Massaguet,8.0,TD,1512936000,35.0,12.48,15.44,73.4,5.82
